{
  "type": "FeatureCollection",
  "features": [
    {
      "geometry": {
        "type": "Point",
        "coordinates": [
          "-91.53683",
          "17.811878"
        ]
      },
      "type": "Feature",
      "properties": {
        "phone": null,
        "state": "Tabasco",
        "neighborhood": "Centro",
        "name": "Balancan, Tab",
        "address": "Coronel Gregorio Mendez Sn",
        "openingHours": null,
        "municipality": "Balancan",
        "zipCode": "86930",
        "bank": "Banamex"
      }
    },
    {
      "geometry": {
        "type": "Point",
        "coordinates": [
          "-93.3762",
          "17.989195"
        ]
      },
      "type": "Feature",
      "properties": {
        "phone": null,
        "state": "Tabasco",
        "neighborhood": "Centro",
        "name": "Cardenas Tab",
        "address": "Morelos 314 314",
        "openingHours": null,
        "municipality": "Cardenas",
        "zipCode": "86500",
        "bank": "Banamex"
      }
    },
    {
      "geometry": {
        "type": "Point",
        "coordinates": [
          "-93.38395",
          "17.995283"
        ]
      },
      "type": "Feature",
      "properties": {
        "phone": null,
        "state": "Tabasco",
        "neighborhood": "Puerto Nuevo",
        "name": "Chontalpa, Cardenas, Tab",
        "address": "Adolfo Lopez Mateos 520",
        "openingHours": null,
        "municipality": "Cardenas",
        "zipCode": "86500",
        "bank": "Banamex"
      }
    },
    {
      "geometry": {
        "type": "Point",
        "coordinates": [
          "-92.642334",
          "18.535677"
        ]
      },
      "type": "Feature",
      "properties": {
        "phone": null,
        "state": "Tabasco",
        "neighborhood": "Centro",
        "name": "Frontera,Tab",
        "address": "Pino Suares 612",
        "openingHours": null,
        "municipality": "Centla",
        "zipCode": "86751",
        "bank": "Banamex"
      }
    },
    {
      "geometry": {
        "type": "Point",
        "coordinates": [
          "-93.223264",
          "18.262457"
        ]
      },
      "type": "Feature",
      "properties": {
        "phone": null,
        "state": "Tabasco",
        "neighborhood": "Centro",
        "name": "Comalcalco Tab",
        "address": "Calle Juarez 401",
        "openingHours": null,
        "municipality": "Comalcalco",
        "zipCode": "86300",
        "bank": "Banamex"
      }
    },
    {
      "geometry": {
        "type": "Point",
        "coordinates": [
          "-92.92057",
          "18.013708"
        ]
      },
      "type": "Feature",
      "properties": {
        "phone": null,
        "state": "Tabasco",
        "neighborhood": "Centro (Antes Cve Mun Inegi 004)",
        "name": "Cunduacan, Tab",
        "address": "Ramon Mendoza Num: 22",
        "openingHours": null,
        "municipality": "Cunduacan",
        "zipCode": "86690",
        "bank": "Banamex"
      }
    },
    {
      "geometry": {
        "type": "Point",
        "coordinates": [
          "-91.76513",
          "17.743639"
        ]
      },
      "type": "Feature",
      "properties": {
        "phone": null,
        "state": "Tabasco",
        "neighborhood": "Emiliano Zapata",
        "name": "Emiliano Zapata Tab",
        "address": "Alvaro Obregon Esquina Gregorio Mendez S/N",
        "openingHours": null,
        "municipality": "Emiliano Zapata",
        "zipCode": "86980",
        "bank": "Banamex"
      }
    },
    {
      "geometry": {
        "type": "Point",
        "coordinates": [
          "-93.39117",
          "17.836412"
        ]
      },
      "type": "Feature",
      "properties": {
        "phone": null,
        "state": "Tabasco",
        "neighborhood": "Centro",
        "name": "Huimanguillo Tab",
        "address": "Avenida Juarez 124",
        "openingHours": null,
        "municipality": "Huimanguillo",
        "zipCode": "86400",
        "bank": "Banamex"
      }
    },
    {
      "geometry": {
        "type": "Point",
        "coordinates": [
          "-93.063896",
          "18.174957"
        ]
      },
      "type": "Feature",
      "properties": {
        "phone": null,
        "state": "Tabasco",
        "neighborhood": "Centro",
        "name": "Jalpa De Mendez, Tab.",
        "address": "Plaza Hidalgo 58 Esq 27",
        "openingHours": null,
        "municipality": "Jalpa De Mendez",
        "zipCode": "86200",
        "bank": "Banamex"
      }
    },
    {
      "geometry": {
        "type": "Point",
        "coordinates": [
          "-92.47853",
          "17.881344"
        ]
      },
      "type": "Feature",
      "properties": {
        "phone": null,
        "state": "Tabasco",
        "neighborhood": "Lazaro Cardenas",
        "name": "Ciudad Pemex Tab",
        "address": "1Ro De Mayo Esquina Boulevard Lazaro Cardenas S/N",
        "openingHours": null,
        "municipality": "Macuspana",
        "zipCode": "86723",
        "bank": "Banamex"
      }
    },
    {
      "geometry": {
        "type": "Point",
        "coordinates": [
          "-92.59397",
          "17.756048"
        ]
      },
      "type": "Feature",
      "properties": {
        "phone": null,
        "state": "Tabasco",
        "neighborhood": "Centro",
        "name": "Macuspana Tab",
        "address": "Plaza De La Constitucion 121",
        "openingHours": null,
        "municipality": "Macuspana",
        "zipCode": "86700",
        "bank": "Banamex"
      }
    },
    {
      "geometry": {
        "type": "Point",
        "coordinates": [
          "-93.21411",
          "18.39441"
        ]
      },
      "type": "Feature",
      "properties": {
        "phone": null,
        "state": "Tabasco",
        "neighborhood": "Centro",
        "name": "Paraiso Tab",
        "address": "Portales 5",
        "openingHours": null,
        "municipality": "Paraiso",
        "zipCode": "86600",
        "bank": "Banamex"
      }
    },
    {
      "geometry": {
        "type": "Point",
        "coordinates": [
          "-92.73859",
          "17.548098"
        ]
      },
      "type": "Feature",
      "properties": {
        "phone": null,
        "state": "Tabasco",
        "neighborhood": "Centro",
        "name": "Tacotalpa,Tab",
        "address": "Benito Juarez 4",
        "openingHours": null,
        "municipality": "Tacotalpa",
        "zipCode": "86000",
        "bank": "Banamex"
      }
    },
    {
      "geometry": {
        "type": "Point",
        "coordinates": [
          "-92.95295",
          "17.547934"
        ]
      },
      "type": "Feature",
      "properties": {
        "phone": null,
        "state": "Tabasco",
        "neighborhood": "Centro",
        "name": "Teapa Tab",
        "address": "Gregorio Mendez 102 Esq. E",
        "openingHours": null,
        "municipality": "Teapa",
        "zipCode": "86800",
        "bank": "Banamex"
      }
    },
    {
      "geometry": {
        "type": "Point",
        "coordinates": [
          "-91.42555",
          "17.474722"
        ]
      },
      "type": "Feature",
      "properties": {
        "phone": null,
        "state": "Tabasco",
        "neighborhood": "C E N T R O",
        "name": "Tenosique Tab",
        "address": "Calle 26 306",
        "openingHours": null,
        "municipality": "Tenosique",
        "zipCode": "86900",
        "bank": "Banamex"
      }
    },
    {
      "geometry": {
        "type": "Point",
        "coordinates": [
          "-92.917625",
          "17.989216"
        ]
      },
      "type": "Feature",
      "properties": {
        "phone": null,
        "state": "Tabasco",
        "neighborhood": "Centro",
        "name": "Villahermosa Tab",
        "address": "Francisco I Madero 302 Y 304",
        "openingHours": null,
        "municipality": "Villahermosa",
        "zipCode": "86000",
        "bank": "Banamex"
      }
    },
    {
      "geometry": {
        "type": "Point",
        "coordinates": [
          "-92.91991",
          "17.99359"
        ]
      },
      "type": "Feature",
      "properties": {
        "phone": null,
        "state": "Tabasco",
        "neighborhood": "Centro",
        "name": "Gregorio Mendez,Tabasco",
        "address": "Avenida Coronel Gregorio Mendez Maga~A 747",
        "openingHours": null,
        "municipality": "Villahermosa",
        "zipCode": "86000",
        "bank": "Banamex"
      }
    },
    {
      "geometry": {
        "type": "Point",
        "coordinates": [
          "-92.92039",
          "18.011372"
        ]
      },
      "type": "Feature",
      "properties": {
        "phone": null,
        "state": "Tabasco",
        "neighborhood": "Tierra Colorada",
        "name": "Tierra Colorada, Villa Herm, Tab",
        "address": "Cc Las Americas L1-5",
        "openingHours": null,
        "municipality": "Villahermosa",
        "zipCode": "86029",
        "bank": "Banamex"
      }
    },
    {
      "geometry": {
        "type": "Point",
        "coordinates": [
          "-92.92437",
          "17.971981"
        ]
      },
      "type": "Feature",
      "properties": {
        "phone": null,
        "state": "Tabasco",
        "neighborhood": "Centro",
        "name": "Soriana Grijalva,Tab",
        "address": "Paseo Usumacinta S/N",
        "openingHours": null,
        "municipality": "Villahermosa",
        "zipCode": "86000",
        "bank": "Banamex"
      }
    },
    {
      "geometry": {
        "type": "Point",
        "coordinates": [
          "-92.92755",
          "17.995943"
        ]
      },
      "type": "Feature",
      "properties": {
        "phone": null,
        "state": "Tabasco",
        "neighborhood": "Centro",
        "name": "Olmeca, Villa Hermosa, Tab",
        "address": "Avenida Jose Pagues Llergo 108",
        "openingHours": null,
        "municipality": "Villahermosa",
        "zipCode": "86000",
        "bank": "Banamex"
      }
    },
    {
      "geometry": {
        "type": "Point",
        "coordinates": [
          "-92.94103",
          "17.979635"
        ]
      },
      "type": "Feature",
      "properties": {
        "phone": null,
        "state": "Tabasco",
        "neighborhood": "Atasta",
        "name": "La Ceiba, Villa Hermosa, Tab",
        "address": "Prolongacion Quintin Arauz Carrillo S/N",
        "openingHours": null,
        "municipality": "Villahermosa",
        "zipCode": "86190",
        "bank": "Banamex"
      }
    },
    {
      "geometry": {
        "type": "Point",
        "coordinates": [
          "-92.94414",
          "17.999928"
        ]
      },
      "type": "Feature",
      "properties": {
        "phone": null,
        "state": "Tabasco",
        "neighborhood": "Tabasco 2000",
        "name": "C.F. Tabasco 2000, Villa Hermosa, Tab",
        "address": "Prolongacion Paseo De Tabasco 1405 Loc 1",
        "openingHours": null,
        "municipality": "Villahermosa",
        "zipCode": "86035",
        "bank": "Banamex"
      }
    },
    {
      "geometry": {
        "type": "Point",
        "coordinates": [
          "-92.95333",
          "17.97528"
        ]
      },
      "type": "Feature",
      "properties": {
        "phone": null,
        "state": "Tabasco",
        "neighborhood": "Tamulte",
        "name": "Tamulte Tab",
        "address": "Gustavo A Rovirosa 21",
        "openingHours": null,
        "municipality": "Villahermosa",
        "zipCode": "86150",
        "bank": "Banamex"
      }
    },
    {
      "geometry": {
        "type": "Point",
        "coordinates": [
          "-92.9661",
          "17.987951"
        ]
      },
      "type": "Feature",
      "properties": {
        "phone": null,
        "state": "Tabasco",
        "neighborhood": "Carrizal",
        "name": "Europlaza, Villa Hermosa, Tab",
        "address": "Periferico S/N",
        "openingHours": null,
        "municipality": "Villahermosa",
        "zipCode": "86038",
        "bank": "Banamex"
      }
    }
  ]
}