{
  "type": "FeatureCollection",
  "features": [
    {
      "geometry": {
        "type": "Point",
        "coordinates": [
          "-95.06942",
          "16.80273"
        ]
      },
      "type": "Feature",
      "properties": {
        "phone": null,
        "state": "Oaxaca",
        "neighborhood": "Cruz Azul (Antes Cve Mun Inegi 010)",
        "name": "Lagunas Oax",
        "address": "Cooperativismo Esquina Blvd Cruz Azul S/N",
        "openingHours": null,
        "municipality": "Barrio De La Soledad",
        "zipCode": "70380",
        "bank": "Banamex"
      }
    },
    {
      "geometry": {
        "type": "Point",
        "coordinates": [
          "-96.75566",
          "17.145266"
        ]
      },
      "type": "Feature",
      "properties": {
        "phone": null,
        "state": "Oaxaca",
        "neighborhood": "Centro",
        "name": "Etla, Oaxaca, Oax",
        "address": "Morelos 55",
        "openingHours": null,
        "municipality": "Espinal",
        "zipCode": "68200",
        "bank": "Banamex"
      }
    },
    {
      "geometry": {
        "type": "Point",
        "coordinates": [
          "-97.77646",
          "17.805635"
        ]
      },
      "type": "Feature",
      "properties": {
        "phone": null,
        "state": "Oaxaca",
        "neighborhood": "Centro",
        "name": "Huajuapan De Leon,Oax.",
        "address": "Porfirio Diaz Esquina Aquiles Serdan S/N",
        "openingHours": null,
        "municipality": "Huajuapan De Leon",
        "zipCode": "69000",
        "bank": "Banamex"
      }
    },
    {
      "geometry": {
        "type": "Point",
        "coordinates": [
          "-96.14075",
          "15.768031"
        ]
      },
      "type": "Feature",
      "properties": {
        "phone": null,
        "state": "Oaxaca",
        "neighborhood": "Sector A",
        "name": "Huatulco Oax",
        "address": "Juarez Esquina Pochula Sta Cruz Secc. A S/N",
        "openingHours": null,
        "municipality": "Huatulco",
        "zipCode": "70989",
        "bank": "Banamex"
      }
    },
    {
      "geometry": {
        "type": "Point",
        "coordinates": [
          "-95.09447",
          "16.554861"
        ]
      },
      "type": "Feature",
      "properties": {
        "phone": null,
        "state": "Oaxaca",
        "neighborhood": "Centro",
        "name": "Cd Ixtepec Oax",
        "address": "Avenida 16 De Septiembre Esquina Moctezuma S/N",
        "openingHours": null,
        "municipality": "Ixtepec",
        "zipCode": "70110",
        "bank": "Banamex"
      }
    },
    {
      "geometry": {
        "type": "Point",
        "coordinates": [
          "-95.02239",
          "16.43321"
        ]
      },
      "type": "Feature",
      "properties": {
        "phone": null,
        "state": "Oaxaca",
        "neighborhood": "Centro",
        "name": "Juchitan Oax",
        "address": "5 De Septiembre 12",
        "openingHours": null,
        "municipality": "Juchitan",
        "zipCode": "70000",
        "bank": "Banamex"
      }
    },
    {
      "geometry": {
        "type": "Point",
        "coordinates": [
          "-95.88073",
          "18.10685"
        ]
      },
      "type": "Feature",
      "properties": {
        "phone": null,
        "state": "Oaxaca",
        "neighborhood": "Centro",
        "name": "Loma Bonita Oax",
        "address": "Quintana Roo Y Michoacan S/N",
        "openingHours": null,
        "municipality": "Loma Bonita",
        "zipCode": "68400",
        "bank": "Banamex"
      }
    },
    {
      "geometry": {
        "type": "Point",
        "coordinates": [
          "-95.03242",
          "16.896976"
        ]
      },
      "type": "Feature",
      "properties": {
        "phone": null,
        "state": "Oaxaca",
        "neighborhood": "Centro",
        "name": "Matias Romero,Oax",
        "address": "16 De Septiembre 203 Sur",
        "openingHours": null,
        "municipality": "Matias Romero",
        "zipCode": "70300",
        "bank": "Banamex"
      }
    },
    {
      "geometry": {
        "type": "Point",
        "coordinates": [
          "-96.596664",
          "16.329311"
        ]
      },
      "type": "Feature",
      "properties": {
        "phone": null,
        "state": "Oaxaca",
        "neighborhood": "Centro",
        "name": "Miahuatlan  Oax",
        "address": "Calle 3 De Octubre 104",
        "openingHours": null,
        "municipality": "Miahuatlan",
        "zipCode": "70800",
        "bank": "Banamex"
      }
    },
    {
      "geometry": {
        "type": "Point",
        "coordinates": [
          "-97.22504",
          "17.457212"
        ]
      },
      "type": "Feature",
      "properties": {
        "phone": null,
        "state": "Oaxaca",
        "neighborhood": "Centro",
        "name": "Nochixtlan, Asuncion N, Oax",
        "address": "Allende 4",
        "openingHours": null,
        "municipality": "Nochixtlan",
        "zipCode": "69600",
        "bank": "Banamex"
      }
    },
    {
      "geometry": {
        "type": "Point",
        "coordinates": [
          "-96.710686",
          "17.080276"
        ]
      },
      "type": "Feature",
      "properties": {
        "phone": null,
        "state": "Oaxaca",
        "neighborhood": "Reforma",
        "name": "Donaji, Oaxaca, Oax",
        "address": "Naranjos 1101",
        "openingHours": null,
        "municipality": "Oaxaca",
        "zipCode": "68050",
        "bank": "Banamex"
      }
    },
    {
      "geometry": {
        "type": "Point",
        "coordinates": [
          "-96.71517",
          "17.044456"
        ]
      },
      "type": "Feature",
      "properties": {
        "phone": null,
        "state": "Oaxaca",
        "neighborhood": "Ejido Cinco Se~Ores",
        "name": "Plaza Del Valle, Oaxaca, Oax",
        "address": "Avenida Universidad 139",
        "openingHours": null,
        "municipality": "Oaxaca",
        "zipCode": "68127",
        "bank": "Banamex"
      }
    },
    {
      "geometry": {
        "type": "Point",
        "coordinates": [
          "-96.71976",
          "17.075882"
        ]
      },
      "type": "Feature",
      "properties": {
        "phone": null,
        "state": "Oaxaca",
        "neighborhood": "Reforma",
        "name": "C.F. Antequera,Oaxaca, Oax",
        "address": "Calzada Porfirio Diaz 231",
        "openingHours": null,
        "municipality": "Oaxaca",
        "zipCode": "68050",
        "bank": "Banamex"
      }
    },
    {
      "geometry": {
        "type": "Point",
        "coordinates": [
          "-96.724045",
          "17.061064"
        ]
      },
      "type": "Feature",
      "properties": {
        "phone": null,
        "state": "Oaxaca",
        "neighborhood": "Centro",
        "name": "Oaxaca Oax",
        "address": "Armenta Y Lopez S/N",
        "openingHours": null,
        "municipality": "Oaxaca",
        "zipCode": "68000",
        "bank": "Banamex"
      }
    },
    {
      "geometry": {
        "type": "Point",
        "coordinates": [
          "-96.72464",
          "17.061968"
        ]
      },
      "type": "Feature",
      "properties": {
        "phone": null,
        "state": "Oaxaca",
        "neighborhood": "La Soledad",
        "name": "Andador Turistico,Oax",
        "address": "3Ra Cerrada Fraccionamiento Independencia 116",
        "openingHours": null,
        "municipality": "Oaxaca",
        "zipCode": "68090",
        "bank": "Banamex"
      }
    },
    {
      "geometry": {
        "type": "Point",
        "coordinates": [
          "-96.72643",
          "17.063553"
        ]
      },
      "type": "Feature",
      "properties": {
        "phone": null,
        "state": "Oaxaca",
        "neighborhood": "0",
        "name": "Marquesado, Oaxaca, Oax",
        "address": "Porfirio Diaz 202",
        "openingHours": null,
        "municipality": "Oaxaca",
        "zipCode": "68000",
        "bank": "Banamex"
      }
    },
    {
      "geometry": {
        "type": "Point",
        "coordinates": [
          "-96.73061",
          "17.056208"
        ]
      },
      "type": "Feature",
      "properties": {
        "phone": null,
        "state": "Oaxaca",
        "neighborhood": "Articulo 123",
        "name": "C. De Abastos,Oax.",
        "address": "Periferico 715-B",
        "openingHours": null,
        "municipality": "Oaxaca",
        "zipCode": "68090",
        "bank": "Banamex"
      }
    },
    {
      "geometry": {
        "type": "Point",
        "coordinates": [
          "-96.75015",
          "17.099113"
        ]
      },
      "type": "Feature",
      "properties": {
        "phone": null,
        "state": "Oaxaca",
        "neighborhood": "Santa Rosa De Lima",
        "name": "Santa Rosa, Oaxaca, Oax",
        "address": "Carretera Internacional Cristobal Colon 481",
        "openingHours": null,
        "municipality": "Oaxaca",
        "zipCode": "68274",
        "bank": "Banamex"
      }
    },
    {
      "geometry": {
        "type": "Point",
        "coordinates": [
          "-96.67457",
          "16.791876"
        ]
      },
      "type": "Feature",
      "properties": {
        "phone": null,
        "state": "Oaxaca",
        "neighborhood": "Centro",
        "name": "Ocotlan De Morelos,Oax",
        "address": "Portal Xicotencatl 1",
        "openingHours": null,
        "municipality": "Ocotlan",
        "zipCode": "71510",
        "bank": "Banamex"
      }
    },
    {
      "geometry": {
        "type": "Point",
        "coordinates": [
          "-98.05318",
          "16.339952"
        ]
      },
      "type": "Feature",
      "properties": {
        "phone": null,
        "state": "Oaxaca",
        "neighborhood": "Centro",
        "name": "Pinotepa, Pinotepa Nacional, Oax",
        "address": "Porfirio Diaz 112",
        "openingHours": null,
        "municipality": "Pinotepa Nacional",
        "zipCode": "71600",
        "bank": "Banamex"
      }
    },
    {
      "geometry": {
        "type": "Point",
        "coordinates": [
          "-96.46631",
          "15.744301"
        ]
      },
      "type": "Feature",
      "properties": {
        "phone": null,
        "state": "Oaxaca",
        "neighborhood": "Centro",
        "name": "Pochutla,Oax",
        "address": "Constitucion 3",
        "openingHours": null,
        "municipality": "Pochutla",
        "zipCode": "70900",
        "bank": "Banamex"
      }
    },
    {
      "geometry": {
        "type": "Point",
        "coordinates": [
          "-97.0666",
          "15.85932"
        ]
      },
      "type": "Feature",
      "properties": {
        "phone": null,
        "state": "Oaxaca",
        "neighborhood": "Centro",
        "name": "Puerto Escondido,Oax.",
        "address": "Perez Gazga 314",
        "openingHours": null,
        "municipality": "Puerto Escondido",
        "zipCode": "71980",
        "bank": "Banamex"
      }
    },
    {
      "geometry": {
        "type": "Point",
        "coordinates": [
          "-97.93358",
          "17.02488"
        ]
      },
      "type": "Feature",
      "properties": {
        "phone": null,
        "state": "Oaxaca",
        "neighborhood": "Centro",
        "name": "Putla,Oax.",
        "address": "Calle 3 Oaxaca 21",
        "openingHours": null,
        "municipality": "Putla Villa De Guerrero",
        "zipCode": "71000",
        "bank": "Banamex"
      }
    },
    {
      "geometry": {
        "type": "Point",
        "coordinates": [
          "-95.19158",
          "16.177237"
        ]
      },
      "type": "Feature",
      "properties": {
        "phone": null,
        "state": "Oaxaca",
        "neighborhood": "Centro",
        "name": "Salina Cruz Oax",
        "address": "Guaymas 22",
        "openingHours": null,
        "municipality": "Salina Cruz",
        "zipCode": "70600",
        "bank": "Banamex"
      }
    },
    {
      "geometry": {
        "type": "Point",
        "coordinates": [
          "-94.19226",
          "16.365557"
        ]
      },
      "type": "Feature",
      "properties": {
        "phone": null,
        "state": "Oaxaca",
        "neighborhood": "Centro",
        "name": "Tapanatepec, San Pedro Tapanatepec, Oax",
        "address": "Martin Melendez 48",
        "openingHours": null,
        "municipality": "San Pedro Tapanatepec",
        "zipCode": "70180",
        "bank": "Banamex"
      }
    },
    {
      "geometry": {
        "type": "Point",
        "coordinates": [
          "-96.707634",
          "17.069494"
        ]
      },
      "type": "Feature",
      "properties": {
        "phone": null,
        "state": "Oaxaca",
        "neighborhood": "Santa Maria (Antes Cve Mun Inegi 067)",
        "name": "Canteras, Sta Lucia, Oax",
        "address": "Carretera Internacional S/N",
        "openingHours": null,
        "municipality": "Santa Lucia Del Camino",
        "zipCode": "68030",
        "bank": "Banamex"
      }
    },
    {
      "geometry": {
        "type": "Point",
        "coordinates": [
          "-98.01144",
          "17.332521"
        ]
      },
      "type": "Feature",
      "properties": {
        "phone": null,
        "state": "Oaxaca",
        "neighborhood": "Centro",
        "name": "Juxtlahuaca, Santiago Juxtlahuaca, Oax",
        "address": "Zaragoza 202 Sur",
        "openingHours": null,
        "municipality": "Santiago Juxtlahuaca",
        "zipCode": "69700",
        "bank": "Banamex"
      }
    },
    {
      "geometry": {
        "type": "Point",
        "coordinates": [
          "-95.23207",
          "16.33109"
        ]
      },
      "type": "Feature",
      "properties": {
        "phone": null,
        "state": "Oaxaca",
        "neighborhood": "Centro",
        "name": "Tehuantepec,Oax",
        "address": "Avenida Juarez 9",
        "openingHours": null,
        "municipality": "Tehuantepec",
        "zipCode": "70760",
        "bank": "Banamex"
      }
    },
    {
      "geometry": {
        "type": "Point",
        "coordinates": [
          "-96.4773",
          "16.954266"
        ]
      },
      "type": "Feature",
      "properties": {
        "phone": null,
        "state": "Oaxaca",
        "neighborhood": "Centro",
        "name": "Tlacolula Oax",
        "address": "Avenida 2 De Abril Portal Florida S/N",
        "openingHours": null,
        "municipality": "Tlacolula",
        "zipCode": "70400",
        "bank": "Banamex"
      }
    },
    {
      "geometry": {
        "type": "Point",
        "coordinates": [
          "-97.67842",
          "17.268982"
        ]
      },
      "type": "Feature",
      "properties": {
        "phone": null,
        "state": "Oaxaca",
        "neighborhood": "Centro",
        "name": "Tlaxiaco, Oax",
        "address": "Colon 1",
        "openingHours": null,
        "municipality": "Tlaxiaco",
        "zipCode": "69800",
        "bank": "Banamex"
      }
    },
    {
      "geometry": {
        "type": "Point",
        "coordinates": [
          "-96.12144",
          "18.078926"
        ]
      },
      "type": "Feature",
      "properties": {
        "phone": null,
        "state": "Oaxaca",
        "neighborhood": "Centro",
        "name": "Tuxtepec Oax",
        "address": "Avenida Independencia 256 Esq Ca",
        "openingHours": null,
        "municipality": "Tuxtepec",
        "zipCode": "68300",
        "bank": "Banamex"
      }
    },
    {
      "geometry": {
        "type": "Point",
        "coordinates": [
          "-96.12826",
          "18.080948"
        ]
      },
      "type": "Feature",
      "properties": {
        "phone": null,
        "state": "Oaxaca",
        "neighborhood": "El Reposo",
        "name": "Tuxtepec Boulevard, Oax",
        "address": "Benito Juarez # 1982",
        "openingHours": null,
        "municipality": "Tuxtepec",
        "zipCode": "68300",
        "bank": "Banamex"
      }
    },
    {
      "geometry": {
        "type": "Point",
        "coordinates": [
          "-96.78458",
          "16.866825"
        ]
      },
      "type": "Feature",
      "properties": {
        "phone": null,
        "state": "Oaxaca",
        "neighborhood": "Zimatlan",
        "name": "Zimatlan Oax",
        "address": "Progreso 2 Y Juarez",
        "openingHours": null,
        "municipality": "Zimatlan",
        "zipCode": "71200",
        "bank": "Banamex"
      }
    }
  ]
}